
{"status":true,"collections":[{"id":50,"old_id":118,"phone":"0541 348801","hours":[{"day":["luned\u00ec","marted\u00ec","mercoled\u00ec","gioved\u00ec","venerd\u00ec"],"hours":"9.00-20.00","closed":""},{"day":["sabato"],"hours":"9.00-21.00","closed":""},{"day":["domenica"],"hours":"9.00-20.00","closed":""}],"description":"","created_at":"2016-07-13 15:35:20","updated_at":"2016-07-13 15:35:20","links":[],"distance":251.13821214997,"title":"Savignano sul Rubicone","street":"Piazza Colombo, 356  - 47039 - SAVIGNANO SUL RUBICONE","lat":44.158302,"lng":12.431731,"extrahours":[]},{"id":52,"old_id":121,"phone":"0547 25342","hours":[{"day":["luned\u00ec","marted\u00ec","mercoled\u00ec","gioved\u00ec","venerd\u00ec","sabato"],"hours":"9.00-19.30","closed":""},{"day":["domenica"],"hours":"9.30-19.30","closed":""}],"description":"","created_at":"2016-07-13 15:35:20","updated_at":"2016-07-13 15:35:20","links":[],"distance":250.56262606468,"title":"Cesena","street":"Via Cavalcavia, 121 - 47521 - CESENA","lat":44.1458343,"lng":12.240402,"extrahours":[]},{"id":42,"old_id":111,"phone":"0532 51817","hours":[{"day":["luned\u00ec","marted\u00ec","mercoled\u00ec","gioved\u00ec","venerd\u00ec","sabato"],"hours":"9.00-20.00","closed":""},{"day":["domenica"],"hours":"9.30-19.30","closed":""}],"description":"","created_at":"2016-07-13 15:35:20","updated_at":"2016-07-13 15:35:20","links":[],"distance":337.0139369965,"title":"Ferrara","street":"Viale Mario Roffi, 2 - 44121 - FERRARA","lat":44.8561741,"lng":11.5806965,"extrahours":[]},{"id":31,"old_id":98,"phone":"0522 383585","hours":[{"day":["luned\u00ec","marted\u00ec","mercoled\u00ec","gioved\u00ec","venerd\u00ec","sabato"],"hours":"9.00-20.00","closed":""},{"day":["domenica"],"hours":"9.30-19.30","closed":""}],"description":"","created_at":"2016-07-13 15:35:20","updated_at":"2016-07-13 15:35:20","links":[],"distance":348.19794704111,"title":"Reggio Emilia","street":"Via F.lli Cervi, 61 - 42100 - REGGIO NELL'EMILIA","lat":44.709601838304,"lng":10.599364489317,"extrahours":[]},{"id":47,"old_id":116,"phone":"049 80 75196","hours":[{"day":["luned\u00ec","marted\u00ec","mercoled\u00ec","gioved\u00ec","venerd\u00ec","sabato"],"hours":"9.00-20.00","closed":""},{"day":["domenica"],"hours":"9.30-19.30","closed":""}],"description":"","created_at":"2016-07-13 15:35:20","updated_at":"2016-07-13 15:35:20","links":[],"distance":393.51401301821,"title":"Padova (XXL)","street":"Via F.S. Orologio, ang. Via Venezia  - 35129 - PADOVA","lat":45.4124394,"lng":11.9123588,"extrahours":[]},{"id":34,"old_id":102,"phone":"0521 485320","hours":[{"day":["luned\u00ec","marted\u00ec","mercoled\u00ec","gioved\u00ec","venerd\u00ec","sabato"],"hours":"9.00-20.00","closed":""},{"day":["domenica"],"hours":"9.30-19.30","closed":""}],"description":"","created_at":"2016-07-13 15:35:20","updated_at":"2016-07-13 15:35:20","links":[],"distance":363.78636261657,"title":"Parma ","street":"Via A.Tassi, 1\/A - 43122 - PARMA","lat":44.785357630328,"lng":10.379384458065,"extrahours":[]},{"id":43,"old_id":112,"phone":"049634071","hours":[{"day":["luned\u00ec","marted\u00ec","mercoled\u00ec","gioved\u00ec","venerd\u00ec","sabato"],"hours":"9.00-20.00","closed":""},{"day":["domenica"],"hours":"9.30-19.30","closed":""}],"description":"","created_at":"2016-07-13 15:35:20","updated_at":"2016-07-13 15:35:20","links":[],"distance":397.03368574839,"title":"Rubano","street":"Via Pria Fosca, 2 - 35030 - RUBANO","lat":45.4313805,"lng":11.7783736,"extrahours":[]},{"id":11,"old_id":70,"phone":"041 5041721","hours":[{"day":["luned\u00ec","marted\u00ec","mercoled\u00ec","gioved\u00ec","venerd\u00ec","sabato"],"hours":"9.00-20.00","closed":""},{"day":["domenica"],"hours":"10.00-20.00","closed":""}],"description":"zona Auchan","created_at":"2016-07-13 15:35:19","updated_at":"2016-07-13 15:35:19","links":[],"distance":402.36896795712,"title":"Mestre","street":"Via Don Tosatto, 77 - 30174 - VENEZIA","lat":45.512226524608,"lng":12.230851650238,"extrahours":[]},{"id":8,"old_id":69,"phone":"041 5951682","hours":[{"day":["luned\u00ec","marted\u00ec","mercoled\u00ec","gioved\u00ec","venerd\u00ec","sabato"],"hours":"9.00-20.00","closed":""},{"day":["domenica"],"hours":"10.00-20.00","closed":""}],"description":"di fronte a Valecenter (Carrefour)","created_at":"2016-07-13 15:35:19","updated_at":"2016-07-13 15:35:19","links":[],"distance":405.96196116097,"title":"Marcon","street":"Via Mattei, 9\/C - 30020 - MARCON","lat":45.5470423,"lng":12.3073107,"extrahours":[]},{"id":13,"old_id":78,"phone":"0444 267173","hours":[{"day":["luned\u00ec","marted\u00ec","mercoled\u00ec","gioved\u00ec","venerd\u00ec","sabato"],"hours":"9.00-20.00","closed":""},{"day":["domenica"],"hours":"9.30-19.30","closed":""}],"description":"zona C.C. Le Piramidi","created_at":"2016-07-13 15:35:19","updated_at":"2016-07-13 15:35:19","links":[],"distance":407.8405640152,"title":"Torri di Quartesolo","street":"Via Brescia, snc - 36040 - TORRI DI QUARTESOLO","lat":45.511955864889,"lng":11.62525177002,"extrahours":[]},{"id":48,"old_id":117,"phone":"042297587","hours":[{"day":["luned\u00ec","marted\u00ec","mercoled\u00ec","gioved\u00ec","venerd\u00ec","sabato"],"hours":"9.00-20.00","closed":""},{"day":["domenica"],"hours":"9.30-19.30","closed":""}],"description":"","created_at":"2016-07-13 15:35:20","updated_at":"2016-07-13 15:35:20","links":[],"distance":412.85088948525,"title":"Zero Branco","street":"Via Treviso, SR 515 - 31059 - ZERO BRANCO","lat":45.6038573,"lng":12.1671984,"extrahours":[]},{"id":5,"old_id":77,"phone":"0421 42641","hours":[{"day":["luned\u00ec","marted\u00ec","mercoled\u00ec","gioved\u00ec","venerd\u00ec"],"hours":"9.00-13.00 \/ 15.00-19.30","closed":""},{"day":["sabato"],"hours":"9.00-19.30","closed":""},{"day":["domenica"],"hours":"10.00-13.00 \/ 15.00-19.00","closed":""}],"description":"vicino a SME, di fronte a supermercato WINNER","created_at":"2016-07-13 15:35:19","updated_at":"2016-07-13 15:35:19","links":[],"distance":416.12720456806,"title":"San Don\u00e0 ","street":"Via Como, 73 - 30027 - SAN DON\u00e0 DI PIAVE","lat":45.640267688052,"lng":12.592949867249,"extrahours":[]},{"id":17,"old_id":72,"phone":"0444 602760","hours":[{"day":["luned\u00ec","marted\u00ec","mercoled\u00ec","gioved\u00ec","venerd\u00ec"],"hours":"9.00-13.00 \/ 15.00-19.30","closed":""},{"day":["sabato"],"hours":"9.00-19.30","closed":""},{"day":["domenica"],"hours":"10.00-13.00 \/ 15.00-19.00","closed":""}],"description":"ang. Via Trieste di fronte a Ipermercato G:B Ramonda","created_at":"2016-07-13 15:35:19","updated_at":"2016-07-13 15:35:19","links":[],"distance":409.10228400286,"title":"Montecchio Maggiore","street":"Via Nogara, 31 - 36075 - MONTECCHIO MAGGIORE","lat":45.496360660137,"lng":11.432089805603,"extrahours":[]},{"id":1,"old_id":85,"phone":"0422 410420","hours":[{"day":["luned\u00ec","marted\u00ec","mercoled\u00ec","gioved\u00ec","venerd\u00ec","sabato"],"hours":"9.00-19.30","closed":""},{"day":["domenica"],"hours":"10.00-13.00 \/ 15.00-19.00","closed":""}],"description":"C.C. Centro Fiera","created_at":"2016-07-13 15:35:19","updated_at":"2016-07-13 15:35:19","links":[],"distance":418.90222996453,"title":"Treviso","street":"Viale IV Novembre, 83\/A - 31100 - TREVISO","lat":45.662256843284,"lng":12.2687458992,"extrahours":[]},{"id":15,"old_id":84,"phone":"0422 300812","hours":[{"day":["luned\u00ec","marted\u00ec","mercoled\u00ec","gioved\u00ec","venerd\u00ec","sabato"],"hours":"9.00-20.00","closed":""},{"day":["domenica"],"hours":"10.00-13.00 \/ 15.00-19.00","closed":""}],"description":"","created_at":"2016-07-13 15:35:19","updated_at":"2016-07-13 15:35:19","links":[],"distance":421.69515692364,"title":"Treviso 2","street":"Via della Repubblica, 253 - 31100 - TREVISO","lat":45.686613323603,"lng":12.245721817017,"extrahours":[]},{"id":37,"old_id":104,"phone":"0524 201146","hours":[{"day":["luned\u00ec","marted\u00ec","mercoled\u00ec","gioved\u00ec","venerd\u00ec","sabato","domenica"],"hours":"10.00-20.00","closed":""}],"description":"presso Fidenza Shopping Park","created_at":"2016-07-13 15:35:20","updated_at":"2016-07-13 15:35:20","links":[],"distance":384.72028842414,"title":"Fidenza ","street":"Via San Michele Campagna, snc - 43036 - FIDENZA","lat":44.883641803013,"lng":10.089673697948,"extrahours":[]},{"id":30,"old_id":100,"phone":"040 827416","hours":[{"day":["luned\u00ec","marted\u00ec","mercoled\u00ec","gioved\u00ec","venerd\u00ec","sabato"],"hours":"8.30-20.00","closed":""},{"day":["domenica"],"hours":"9.30-19.30","closed":""}],"description":"","created_at":"2016-07-13 15:35:20","updated_at":"2016-07-13 15:35:20","links":[],"distance":426.62676705866,"title":"Trieste","street":"Via Rio Primario, 1\/3 - 34148 - TRIESTE","lat":45.6201021,"lng":13.7872829,"extrahours":[]},{"id":41,"old_id":110,"phone":"044 5670582","hours":[{"day":["luned\u00ec","marted\u00ec","mercoled\u00ec","gioved\u00ec","venerd\u00ec","sabato"],"hours":"9.00-20.00","closed":""},{"day":["domenica"],"hours":"9.30-19.30","closed":""}],"description":"","created_at":"2016-07-13 15:35:20","updated_at":"2016-07-13 15:35:20","links":[],"distance":432.95854665832,"title":"Schio","street":"Viale Europa Unita, 2 - 36015 - SCHIO","lat":45.7061205,"lng":11.3693805,"extrahours":[]},{"id":60,"old_id":125,"phone":"045-6401252","hours":[{"day":["luned\u00ec","marted\u00ec","mercoled\u00ec","gioved\u00ec","venerd\u00ec","sabato"],"hours":"9.00-20.00","closed":""},{"day":["domenica"],"hours":"9.30-19.30","closed":""}],"description":"","created_at":"2016-07-13 15:35:20","updated_at":"2016-07-13 15:35:20","links":[],"distance":421.53215520391,"title":"Peschiera del Garda","street":"SS11 Angolo Via Bell'Italia (ang. Via Pastore) - 37019 - PESCHIERA DEL GARDA","lat":45.45017,"lng":10.664655,"extrahours":[]},{"id":20,"old_id":66,"phone":"0434 959568","hours":[{"day":["luned\u00ec"],"hours":"14.00-20.00","closed":""},{"day":["marted\u00ec","mercoled\u00ec","gioved\u00ec","venerd\u00ec","sabato"],"hours":"9.00-20.00","closed":""},{"day":["domenica"],"hours":"9.30-19.30","closed":""}],"description":"","created_at":"2016-07-13 15:35:19","updated_at":"2016-07-13 15:35:19","links":[],"distance":450.36683990801,"title":"Fiume Veneto","street":"Via Pontebbana, 23 - 33080 - FIUME VENETO","lat":45.94535090331,"lng":12.717886120008,"extrahours":[]},{"id":40,"old_id":108,"phone":"030 9127336","hours":[{"day":["luned\u00ec","marted\u00ec","mercoled\u00ec","gioved\u00ec","venerd\u00ec","sabato","domenica"],"hours":"9.00-20.00","closed":""}],"description":"Presso C.C. Le Vele","created_at":"2016-07-13 15:35:20","updated_at":"2016-07-13 15:35:20","links":[],"distance":426.91302754159,"title":"Desenzano","street":"Via Adua, 10 - 25015 - DESENZANO DEL GARDA","lat":45.463495584497,"lng":10.526785254478,"extrahours":[]},{"id":58,"old_id":124,"phone":"0434 370506","hours":[{"day":["luned\u00ec","marted\u00ec","mercoled\u00ec","gioved\u00ec","venerd\u00ec","sabato"],"hours":"9.00-20.00","closed":""},{"day":["domenica"],"hours":"9.30-19.30","closed":""}],"description":"posizionato nel complesso commerciale di Smart Moda, Cadoro Supermercati, Brico Fer","created_at":"2016-07-13 15:35:20","updated_at":"2016-07-13 15:35:20","links":[],"distance":453.3546641823,"title":"Pordenone","street":"Viale Venezia 83 - 33170 - PORDENONE","lat":45.9738963,"lng":12.6468596,"extrahours":[]},{"id":28,"old_id":96,"phone":"0523 606407","hours":[{"day":["luned\u00ec","marted\u00ec","mercoled\u00ec","gioved\u00ec","venerd\u00ec","sabato"],"hours":"9.00-19.30","closed":""},{"day":["domenica"],"hours":"10.00-13.00 \/ 15.00-19.00","closed":""}],"description":"","created_at":"2016-07-13 15:35:20","updated_at":"2016-07-13 15:35:20","links":[],"distance":415.14332678827,"title":"Piacenza","street":"Via E. Parmense, 6 - 29122 - PIACENZA","lat":45.040213871816,"lng":9.7184468058549,"extrahours":[]},{"id":24,"old_id":87,"phone":"030 2122595","hours":[{"day":["luned\u00ec","marted\u00ec","mercoled\u00ec","gioved\u00ec","venerd\u00ec","sabato"],"hours":"9.00-20.00","closed":""},{"day":["domenica"],"hours":"9.30-19.30","closed":""}],"description":"","created_at":"2016-07-13 15:35:20","updated_at":"2016-07-13 15:35:20","links":[],"distance":436.37386410991,"title":"Mazzano","street":"Via Padana Superiore - 25080 - MAZZANO","lat":45.501628057673,"lng":10.346851423674,"extrahours":[]},{"id":38,"old_id":106,"phone":"0464 436156","hours":[{"day":["luned\u00ec","marted\u00ec","mercoled\u00ec","gioved\u00ec","venerd\u00ec","sabato"],"hours":"9.00-20.00","closed":""},{"day":["domenica"],"hours":"9.30-19.30","closed":""}],"description":"di fronte al Millennium Center","created_at":"2016-07-13 15:35:20","updated_at":"2016-07-13 15:35:20","links":[],"distance":457.18283425211,"title":"Rovereto ","street":"Via del Garda, snc - 38068 - ROVERETO","lat":45.868544396086,"lng":11.01510500921,"extrahours":[]},{"id":56,"old_id":128,"phone":"0523-481668","hours":[{"day":["luned\u00ec","marted\u00ec","mercoled\u00ec","gioved\u00ec","venerd\u00ec","sabato"],"hours":"9.00-20.00","closed":""},{"day":["domenica"],"hours":"9.30-19.30","closed":""}],"description":"","created_at":"2016-07-13 15:35:20","updated_at":"2016-07-13 15:35:20","links":[],"distance":418.81573679497,"title":"Piacenza","street":"Via Emilio Pavese ang. Via Badiaschi - 29121 - PIACENZA","lat":45.0544342,"lng":9.6647272,"extrahours":[]},{"id":25,"old_id":88,"phone":"\t0432 486236","hours":[{"day":["luned\u00ec","marted\u00ec","mercoled\u00ec","gioved\u00ec","venerd\u00ec","sabato"],"hours":"9.00-19.30","closed":""},{"day":["domenica"],"hours":"9.30-19.30","closed":""}],"description":"","created_at":"2016-07-13 15:35:20","updated_at":"2016-07-13 15:35:20","links":[],"distance":471.38047436977,"title":"Tavagnacco","street":"Via Nazionale, 42 - 33010 - TAVAGNACCO","lat":46.104308823431,"lng":13.229429758903,"extrahours":[]},{"id":3,"old_id":61,"phone":"030 2303753","hours":[{"day":["luned\u00ec","marted\u00ec","mercoled\u00ec","gioved\u00ec","venerd\u00ec","sabato"],"hours":"9.00-20.00","closed":""},{"day":["domenica"],"hours":"10.00-13.00 \/ 15.00-19.00","closed":""}],"description":"","created_at":"2016-07-13 15:35:19","updated_at":"2016-07-13 15:35:19","links":[],"distance":442.53185499579,"title":"Brescia","street":"Via Foro Boario, 16\/B - 25124 - BRESCIA","lat":45.5276344,"lng":10.2383033,"extrahours":[]},{"id":23,"old_id":64,"phone":"030 2586467","hours":[{"day":["luned\u00ec","marted\u00ec","mercoled\u00ec","gioved\u00ec","venerd\u00ec","sabato"],"hours":"9.00-20.00","closed":""},{"day":["domenica"],"hours":"10.00-13.00 \/ 15.00-19.00","closed":""}],"description":"di fronte a Lidl","created_at":"2016-07-13 15:35:20","updated_at":"2016-07-13 15:35:20","links":[],"distance":444.82435531401,"title":"Castel Mella","street":"Via Roncadelle, 70 - 25030 - CASTEL MELLA","lat":45.518300989186,"lng":10.142312049866,"extrahours":[]},{"id":27,"old_id":95,"phone":"030 9941927","hours":[{"day":["luned\u00ec","marted\u00ec","mercoled\u00ec","gioved\u00ec","venerd\u00ec","sabato","domenica"],"hours":"9.00-19.30","closed":""}],"description":"Dentro c.c. \"Le Piazze\", Metalmark","created_at":"2016-07-13 15:35:20","updated_at":"2016-07-13 15:35:20","links":[],"distance":441.55205855085,"title":"Orzinuovi","street":"Via Adua, 36 - 25034 - ORZINUOVI","lat":45.410391810329,"lng":9.9364996699296,"extrahours":[]},{"id":9,"old_id":62,"phone":"030 7364530","hours":[{"day":["luned\u00ec","marted\u00ec","mercoled\u00ec","gioved\u00ec","venerd\u00ec"],"hours":"9.00-12.30 \/ 14.30-19.30","closed":""},{"day":["sabato"],"hours":"9.00-19.30","closed":""},{"day":["domenica"],"hours":"9.30-12.30 \/ 14.30-19.30","closed":""}],"description":"","created_at":"2016-07-13 15:35:19","updated_at":"2016-07-13 15:35:19","links":[],"distance":462.56190125707,"title":"Capriolo","street":"Via Molinara, 2   - 25031 - CAPRIOLO","lat":45.620310985447,"lng":9.9259757995605,"extrahours":[]},{"id":21,"old_id":74,"phone":"0371 619765","hours":[{"day":["luned\u00ec","marted\u00ec","mercoled\u00ec","gioved\u00ec","venerd\u00ec","sabato"],"hours":"9.00-20.00","closed":""},{"day":["domenica"],"hours":"9.30-19.30","closed":""}],"description":"fianco al C.C. Centro Peve - Bennet","created_at":"2016-07-13 15:35:20","updated_at":"2016-07-13 15:35:20","links":[],"distance":448.44603053577,"title":"Pieve Fissiraga","street":"Via Bocconi, snc - 26854 - PIEVE FISSIRAGA","lat":45.277096851273,"lng":9.4581365956856,"extrahours":[]},{"id":19,"old_id":71,"phone":"0383 62152","hours":[{"day":["luned\u00ec","marted\u00ec","mercoled\u00ec","gioved\u00ec","venerd\u00ec","sabato"],"hours":"9.00-20.00","closed":""},{"day":["domenica"],"hours":"9.30-19.30","closed":""}],"description":"","created_at":"2016-07-13 15:35:19","updated_at":"2016-07-13 15:35:19","links":[],"distance":441.81647985869,"title":"Voghera","street":"SP1 Bressana - Salice Sud - 27058 - VOGHERA","lat":44.993454733811,"lng":9.0666389465332,"extrahours":[]},{"id":55,"old_id":126,"phone":"035-581002","hours":[{"day":["luned\u00ec","marted\u00ec","mercoled\u00ec","gioved\u00ec","venerd\u00ec","sabato"],"hours":"9.00-20.00","closed":""},{"day":["domenica"],"hours":"9.30-19.30","closed":""}],"description":"","created_at":"2016-07-13 15:35:20","updated_at":"2016-07-13 15:35:20","links":[],"distance":475.96908233103,"title":"Pedrengo","street":"Via Brugali SNC  - 24066 - PEDRENGO","lat":45.694057,"lng":9.757526,"extrahours":[]},{"id":18,"old_id":73,"phone":"035 530503","hours":[{"day":["luned\u00ec","marted\u00ec","mercoled\u00ec","gioved\u00ec","venerd\u00ec","sabato"],"hours":"9.00-20.00","closed":""},{"day":["domenica"],"hours":"9.30-19.30","closed":""}],"description":"zona C.C. Oriocenter","created_at":"2016-07-13 15:35:19","updated_at":"2016-07-13 15:35:19","links":[],"distance":475.66903164203,"title":"Orio al Serio","street":"Via Portico, 12 - 24050 - ORIO AL SERIO","lat":45.664446286452,"lng":9.6888041496277,"extrahours":[]},{"id":46,"old_id":115,"phone":"02 89423764","hours":[{"day":["luned\u00ec","marted\u00ec","mercoled\u00ec","gioved\u00ec","venerd\u00ec","sabato"],"hours":"9.00-20.00","closed":""},{"day":["domenica"],"hours":"9.30-19.30","closed":""}],"description":"","created_at":"2016-07-13 15:35:20","updated_at":"2016-07-13 15:35:20","links":[],"distance":466.65940229517,"title":"Pantigliate (XXL)","street":"SS 415 Nuova Paullese, snc  - 20090 - PANTIGLIATE","lat":45.429595,"lng":9.363727,"extrahours":[]},{"id":59,"old_id":129,"phone":"02 98245685","hours":[{"day":["luned\u00ec","marted\u00ec","mercoled\u00ec","gioved\u00ec","venerd\u00ec","sabato"],"hours":"9.00-20.00","closed":""},{"day":["domenica"],"hours":"9.30-19.30","closed":""}],"description":"","created_at":"2016-07-13 15:35:20","updated_at":"2016-07-13 15:35:20","links":[],"distance":465.38949411969,"title":"San Giuliano M.se","street":"Via Tolstoj 81 - 20098 - SAN GIULIANO MILANESE","lat":45.3882769,"lng":9.3061327,"extrahours":[]},{"id":7,"old_id":60,"phone":"0471 401396","hours":[{"day":["luned\u00ec","marted\u00ec","mercoled\u00ec","gioved\u00ec","venerd\u00ec","sabato"],"hours":"9.00-19.30","closed":""},{"day":["domenica"],"hours":"10.00-13.00 \/ 15.00-19.00","closed":""}],"description":"","created_at":"2016-07-13 15:35:19","updated_at":"2016-07-13 15:35:19","links":[],"distance":518.59773931434,"title":"Bolzano","street":"Via Galileo Galilei, 2 - 39100 - BOLZANO","lat":46.4872582,"lng":11.3415353,"extrahours":[]},{"id":2,"old_id":65,"phone":"0354 66057","hours":[{"day":["luned\u00ec","marted\u00ec","mercoled\u00ec","gioved\u00ec","venerd\u00ec","sabato"],"hours":"9.00-20.00","closed":""},{"day":["domenica"],"hours":"9.30-19.30","closed":""}],"description":"Parco Commerciale Curno di fianco a Leroy Merlin.","created_at":"2016-07-13 15:35:19","updated_at":"2016-07-13 15:35:19","links":[],"distance":480.38219322302,"title":"Curno","street":"Via Europa, 45 - 24035 - CURNO","lat":45.680279709585,"lng":9.6061706542969,"extrahours":[]},{"id":53,"old_id":123,"phone":"02 9091618\t","hours":[{"day":["luned\u00ec","marted\u00ec","mercoled\u00ec","gioved\u00ec","venerd\u00ec","sabato"],"hours":"9.00-20.00","closed":""},{"day":["domenica"],"hours":"9.30-19.30","closed":""}],"description":"","created_at":"2016-07-13 15:35:20","updated_at":"2016-07-13 15:35:20","links":[],"distance":479.08278373085,"title":"Trezzo sull'Adda","street":"Via Emilia Brasca  - 20056 - TREZZO SULL'ADDA","lat":45.617426,"lng":9.4873229,"extrahours":[]},{"id":26,"old_id":90,"phone":"02 25714295","hours":[{"day":["luned\u00ec","marted\u00ec","mercoled\u00ec","gioved\u00ec","venerd\u00ec","sabato"],"hours":"9.00-20.00","closed":""},{"day":["domenica"],"hours":"9.30-19.30","closed":""}],"description":"","created_at":"2016-07-13 15:35:20","updated_at":"2016-07-13 15:35:20","links":[],"distance":479.93282797177,"title":"Milano Viale Monza","street":"Viale Monza, 162 - 20127 - MILANO","lat":45.5068463,"lng":9.2234271,"extrahours":[]},{"id":39,"old_id":107,"phone":"0398 33919","hours":[{"day":["luned\u00ec","marted\u00ec","mercoled\u00ec","gioved\u00ec","venerd\u00ec","sabato"],"hours":"9.00-20.00","closed":""},{"day":["domenica"],"hours":"09.30-13.00 \/ 15.00-19.30","closed":""}],"description":"","created_at":"2016-07-13 15:35:20","updated_at":"2016-07-13 15:35:20","links":[],"distance":483.48117634817,"title":"Monza ","street":"Via Buonarroti, 85 - 20900 - MONZA","lat":45.573571015231,"lng":9.2834783791841,"extrahours":[]},{"id":33,"old_id":101,"phone":"02 41273479","hours":[{"day":["luned\u00ec","marted\u00ec","mercoled\u00ec","gioved\u00ec","venerd\u00ec","sabato"],"hours":"9.00-21.00","closed":""},{"day":["domenica"],"hours":"9.30-20.30","closed":""}],"description":"di fronte a Esselunga","created_at":"2016-07-13 15:35:20","updated_at":"2016-07-13 15:35:20","links":[],"distance":478.87236842215,"title":"Milano Via Lorenteggio ","street":"Via Lorenteggio, 246 - 20147 - MILANO","lat":45.445974655551,"lng":9.1235218942165,"extrahours":[]},{"id":45,"old_id":114,"phone":"02 3272780","hours":[{"day":["luned\u00ec","marted\u00ec","mercoled\u00ec","gioved\u00ec","venerd\u00ec","sabato"],"hours":"9.00-20.00","closed":""},{"day":["domenica"],"hours":"9.30-19.30","closed":""}],"description":"Tutti i marted\u00ec il punto vendita ospita PetPet, la prima SPA e Toelettatura a quattro ruote per il benessere del tuo pet.","created_at":"2016-07-13 15:35:20","updated_at":"2016-07-13 15:35:20","links":[],"distance":481.7389542805,"title":"Milano Viale Certosa","street":"Viale Certosa, 36 - 20155 - MILANO","lat":45.490943,"lng":9.150289,"extrahours":[]},{"id":57,"old_id":127,"phone":"0131-222998","hours":[{"day":["luned\u00ec","marted\u00ec","mercoled\u00ec","gioved\u00ec","venerd\u00ec","sabato"],"hours":"9.00-20.00","closed":""},{"day":["domenica"],"hours":"9.30-19.30","closed":""}],"description":"","created_at":"2016-07-13 15:35:20","updated_at":"2016-07-13 15:35:20","links":[],"distance":460.48812407747,"title":"Alessandria","street":"Via Giordano Bruno SNC - 15121 - ALESSANDRIA","lat":44.918064,"lng":8.598047,"extrahours":[]},{"id":29,"old_id":97,"phone":"0362 43661","hours":[{"day":["luned\u00ec","marted\u00ec","mercoled\u00ec","gioved\u00ec","venerd\u00ec","sabato"],"hours":"9.00-20.00","closed":""},{"day":["domenica"],"hours":"9.30-19.30","closed":""}],"description":"di fianco a Lidl","created_at":"2016-07-13 15:35:20","updated_at":"2016-07-13 15:35:20","links":[],"distance":489.33217058832,"title":"Nova Milanese","street":"Via Venezia, 1\/C - 20834 - NOVA MILANESE","lat":45.597071107818,"lng":9.1986009478569,"extrahours":[]},{"id":4,"old_id":75,"phone":"02 33911596","hours":[{"day":["luned\u00ec","marted\u00ec","mercoled\u00ec","gioved\u00ec","venerd\u00ec","sabato"],"hours":"9.00-19.30","closed":""},{"day":["domenica"],"hours":"10.00-13.00 \/ 15.00-19.00","closed":""}],"description":"fianco a Penny Market","created_at":"2016-07-13 15:35:19","updated_at":"2016-07-13 15:35:19","links":[],"distance":486.04876225604,"title":"Pero","street":"Via XXV Aprile, 3 - 20016 - PERO","lat":45.5092538,"lng":9.0917156,"extrahours":[]},{"id":14,"old_id":86,"phone":"0381 346749","hours":[{"day":["luned\u00ec","marted\u00ec","mercoled\u00ec","gioved\u00ec","venerd\u00ec","sabato"],"hours":"9.00-20.00","closed":""},{"day":["domenica"],"hours":"10.00-13.00 \/ 15.00-19.00","closed":""}],"description":"di fronte a Esselunga Superstore","created_at":"2016-07-13 15:35:19","updated_at":"2016-07-13 15:35:19","links":[],"distance":478.53542424239,"title":"Vigevano","street":"Viale Commercio, 200 - 27029 - VIGEVANO","lat":45.300491759926,"lng":8.859810866561,"extrahours":[]},{"id":6,"old_id":67,"phone":"0362 862743","hours":[{"day":["luned\u00ec","marted\u00ec","mercoled\u00ec","gioved\u00ec","venerd\u00ec","sabato"],"hours":"9.00-19.30","closed":""},{"day":["domenica"],"hours":"10.00-13.00 \/ 15.00-19.00","closed":""}],"description":"di fianco a Hotel Habitat","created_at":"2016-07-13 15:35:19","updated_at":"2016-07-13 15:35:19","links":[],"distance":496.57216905685,"title":"Giussano","street":"Viale Como, 6 - 20034 - GIUSSANO","lat":45.677626124439,"lng":9.203850030899,"extrahours":[]},{"id":54,"old_id":122,"phone":"0342358107","hours":[{"day":["luned\u00ec","marted\u00ec","mercoled\u00ec","gioved\u00ec","venerd\u00ec","sabato"],"hours":"9.00-19.30","closed":""},{"day":["domenica"],"hours":"9.30-19.30","closed":""}],"description":"","created_at":"2016-07-13 15:35:20","updated_at":"2016-07-13 15:35:20","links":[],"distance":521.63665891143,"title":"Castione Andevenno","street":"Via Nazionale 49 - 23012 - CASTIONE ANDEVENNO","lat":46.1581607,"lng":9.7673284,"extrahours":[]},{"id":12,"old_id":76,"phone":"0331 578346","hours":[{"day":["luned\u00ec","marted\u00ec","mercoled\u00ec","gioved\u00ec","venerd\u00ec","sabato"],"hours":"9.00-20.00","closed":""},{"day":["domenica"],"hours":"10.00-13.00 \/ 15.00-19.00","closed":""}],"description":"ang. via Gramsci","created_at":"2016-07-13 15:35:19","updated_at":"2016-07-13 15:35:19","links":[],"distance":501.85934491836,"title":"Rescaldina","street":"Viale dei Kennedy ang. Via Gramsci - 20027 - RESCALDINA","lat":45.616422602937,"lng":8.9573240465506,"extrahours":[]},{"id":22,"old_id":68,"phone":"0331 5482261","hours":[{"day":["luned\u00ec","marted\u00ec","mercoled\u00ec","gioved\u00ec","venerd\u00ec","sabato"],"hours":"9.00-20.00","closed":""},{"day":["domenica"],"hours":"10.00-13.00 \/ 15.00-19.00","closed":""}],"description":"a 2 minuti dall'Esselunga di Viale Sabotino","created_at":"2016-07-13 15:35:20","updated_at":"2016-07-13 15:35:20","links":[],"distance":502.12838404726,"title":"Legnano","street":"Via Novara, 3 - 20025 - LEGNANO","lat":45.591068342742,"lng":8.901801109314,"extrahours":[]},{"id":51,"old_id":120,"phone":"031 263055","hours":[{"day":["luned\u00ec","marted\u00ec","mercoled\u00ec","gioved\u00ec","venerd\u00ec","sabato","domenica"],"hours":"9.00-19.30","closed":""}],"description":"","created_at":"2016-07-13 15:35:20","updated_at":"2016-07-13 15:35:20","links":[],"distance":513.24570522661,"title":"Como","street":"Via Italia Libera, 27 - 22100 - COMO","lat":45.8021399,"lng":9.0848282,"extrahours":[]},{"id":10,"old_id":89,"phone":"0321 806302","hours":[{"day":["luned\u00ec","marted\u00ec","mercoled\u00ec","gioved\u00ec","venerd\u00ec","sabato"],"hours":"9.00-20.00","closed":""},{"day":["domenica"],"hours":"9.30-19.30","closed":""}],"description":"presso IPERCOOP \u201cIl Gallo\u201d","created_at":"2016-07-13 15:35:19","updated_at":"2016-07-13 15:35:19","links":[],"distance":501.500894998,"title":"Galliate","street":"Via Sorelle Ugazio, 6 - 28066 - GALLIATE","lat":45.468896888511,"lng":8.6894989013672,"extrahours":[]},{"id":44,"old_id":113,"phone":"0331 669628","hours":[{"day":["luned\u00ec","marted\u00ec","mercoled\u00ec","gioved\u00ec","venerd\u00ec","sabato"],"hours":"9.00-19.30","closed":""},{"day":["domenica"],"hours":"09.00-13.00 \/ 15.00-19.00","closed":""}],"description":"","created_at":"2016-07-13 15:35:20","updated_at":"2016-07-13 15:35:20","links":[],"distance":508.07138382721,"title":"Lonate Pozzolo","street":"Via Busto Arsizio, 159 - 21015 - LONATE POZZOLO","lat":45.593552,"lng":8.779552,"extrahours":[]},{"id":32,"old_id":99,"phone":"0331 783587","hours":[{"day":["luned\u00ec","marted\u00ec","mercoled\u00ec","gioved\u00ec","venerd\u00ec","sabato"],"hours":"9.00-20.00","closed":""},{"day":["domenica"],"hours":"10.00-13.00 \/ 15.00-19.30","closed":""}],"description":"","created_at":"2016-07-13 15:35:20","updated_at":"2016-07-13 15:35:20","links":[],"distance":512.56882383981,"title":"Gallarate","street":"Via F. Baracca, 21  - 21013 - GALLARATE","lat":45.657540525273,"lng":8.805006723851,"extrahours":[]},{"id":35,"old_id":103,"phone":"0161 294938","hours":[{"day":["luned\u00ec","marted\u00ec","mercoled\u00ec","gioved\u00ec","venerd\u00ec","sabato"],"hours":"9.00-19.30","closed":""},{"day":["domenica"],"hours":"9.30-19.30","closed":""}],"description":"di fianco a Tigot\u00e0","created_at":"2016-07-13 15:35:20","updated_at":"2016-07-13 15:35:20","links":[],"distance":504.40190583935,"title":"Vercelli ","street":"Strada Torino, 143 - 13100 - VERCELLI","lat":45.323541336658,"lng":8.3922404050827,"extrahours":[]},{"id":49,"old_id":119,"phone":"0332 281479","hours":[{"day":["luned\u00ec","marted\u00ec","mercoled\u00ec","gioved\u00ec","venerd\u00ec","sabato"],"hours":"9.00-19.30","closed":""},{"day":["domenica"],"hours":"9.30-19.00","closed":""}],"description":"","created_at":"2016-07-13 15:35:20","updated_at":"2016-07-13 15:35:20","links":[],"distance":527.43536858571,"title":"Varese","street":"Via San Vito Silvestro, 56 - 21100 - VARESE","lat":45.82488,"lng":8.80946,"extrahours":[]},{"id":16,"old_id":63,"phone":"0331 913945","hours":[{"day":["luned\u00ec","marted\u00ec","mercoled\u00ec","gioved\u00ec","venerd\u00ec","sabato"],"hours":"9.00-20.00","closed":""},{"day":["domenica"],"hours":"9.30-19.30","closed":""}],"description":"di fianco a Ipermercato Bennet","created_at":"2016-07-13 15:35:19","updated_at":"2016-07-13 15:35:19","links":[],"distance":527.19088266459,"title":"Castelletto sopra Ticino","street":"Via Sempione, snc - 28053 - CASTELLETTO SOPRA TICINO","lat":45.719911084927,"lng":8.611848950386,"extrahours":[]},{"id":36,"old_id":105,"phone":"0125 577940","hours":[{"day":["luned\u00ec","marted\u00ec","mercoled\u00ec","gioved\u00ec","venerd\u00ec","sabato"],"hours":"9.00-20.00","closed":""},{"day":["domenica"],"hours":"10.00-20.00","closed":""}],"description":"zona Carrefour","created_at":"2016-07-13 15:35:20","updated_at":"2016-07-13 15:35:20","links":[],"distance":541.46949572148,"title":"Burolo","street":"Viale Liguria, 5 - 10010 - BUROLO","lat":45.46831125988,"lng":7.9211157560349,"extrahours":[]}]}